$GPGGA,005652.00,2428.65761693,N,11804.71171350,E,1,05,2.87,+0.00,M,00.000,M,,*43
$GPGGA,005653.00,2428.65890434,N,11804.72809403,E,1,05,2.87,+0.00,M,00.000,M,,*48
$GPGGA,005654.00,2428.66019171,N,11804.74447457,E,1,05,2.87,+0.00,M,00.000,M,,*40
$GPGGA,005655.00,2428.66147905,N,11804.76085511,E,1,05,2.87,+0.00,M,00.000,M,,*4B
$GPGGA,005656.00,2428.66276637,N,11804.77723566,E,1,05,2.87,+0.00,M,00.000,M,,*4D
$GPGGA,005657.00,2428.66405365,N,11804.79361621,E,1,05,2.87,+0.00,M,00.000,M,,*40
$GPGGA,005658.00,2428.66534090,N,11804.80999677,E,1,05,2.87,+0.00,M,00.000,M,,*4D
$GPGGA,005659.00,2428.66662813,N,11804.82637734,E,1,05,2.87,+0.00,M,00.000,M,,*40
$GPGGA,005700.00,2428.66791529,N,11804.84275791,E,1,05,2.87,+0.00,M,00.000,M,,*4F
$GPGGA,005701.00,2428.66920194,N,11804.85913853,E,1,05,2.87,+0.00,M,00.000,M,,*43
$GPGGA,005702.00,2428.67048072,N,11804.87551990,E,1,05,2.87,+0.00,M,00.000,M,,*49
$GPGGA,005703.00,2428.67170438,N,11804.89190627,E,1,05,2.87,+0.00,M,00.000,M,,*4C
$GPGGA,005704.00,2428.67290375,N,11804.90829481,E,1,05,2.87,+0.00,M,00.000,M,,*45
$GPGGA,005705.00,2428.67410154,N,11804.92468349,E,1,05,2.87,+0.00,M,00.000,M,,*43
$GPGGA,005706.00,2428.67529920,N,11804.94107218,E,1,05,2.87,+0.00,M,00.000,M,,*4F
$GPGGA,005707.00,2428.67649683,N,11804.95746088,E,1,05,2.87,+0.00,M,00.000,M,,*44
$GPGGA,005708.00,2428.67769442,N,11804.97384958,E,1,05,2.87,+0.00,M,00.000,M,,*4B
$GPGGA,005709.00,2428.67889199,N,11804.99023829,E,1,05,2.87,+0.00,M,00.000,M,,*4F
$GPGGA,005710.00,2428.68008952,N,11805.00662700,E,1,05,2.87,+0.00,M,00.000,M,,*40
$GPGGA,005711.00,2428.68128703,N,11805.02301572,E,1,05,2.87,+0.00,M,00.000,M,,*4D
$GPGGA,005712.00,2428.68248453,N,11805.03940444,E,1,05,2.87,+0.00,M,00.000,M,,*47
$GPGGA,005713.00,2428.68368232,N,11805.05579314,E,1,05,2.87,+0.00,M,00.000,M,,*46
$GPGGA,005714.00,2428.68488531,N,11805.07218139,E,1,05,2.87,+0.00,M,00.000,M,,*43
$GPGGA,005715.00,2428.68617327,N,11805.08856175,E,1,05,2.87,+0.00,M,00.000,M,,*40
$GPGGA,005716.00,2428.68775805,N,11805.10491110,E,1,05,2.87,+0.00,M,00.000,M,,*40
$GPGGA,005717.00,2428.68940219,N,11805.12125355,E,1,05,2.87,+0.00,M,00.000,M,,*45
$GPGGA,005718.00,2428.69104995,N,11805.13759556,E,1,05,2.87,+0.00,M,00.000,M,,*45
$GPGGA,005719.00,2428.69269791,N,11805.15393755,E,1,05,2.87,+0.00,M,00.000,M,,*43
$GPGGA,005720.00,2428.69434585,N,11805.17027954,E,1,05,2.87,+0.00,M,00.000,M,,*41
$GPGGA,005721.00,2428.69599376,N,11805.18662154,E,1,05,2.87,+0.00,M,00.000,M,,*4C
$GPGGA,005722.00,2428.69764174,N,11805.20296354,E,1,05,2.87,+0.00,M,00.000,M,,*49
$GPGGA,005723.00,2428.69929109,N,11805.21930538,E,1,05,2.87,+0.00,M,00.000,M,,*4F
$GPGGA,005724.00,2428.70096332,N,11805.23564443,E,1,05,2.87,+0.00,M,00.000,M,,*45
$GPGGA,005725.00,2428.70292162,N,11805.25194444,E,1,05,2.87,+0.00,M,00.000,M,,*4F
$GPGGA,005726.00,2428.70520863,N,11805.26819432,E,1,05,2.87,+0.00,M,00.000,M,,*44
$GPGGA,005727.00,2428.70757327,N,11805.28443089,E,1,05,2.87,+0.00,M,00.000,M,,*45
$GPGGA,005728.00,2428.71070612,N,11805.30049757,E,1,05,2.87,+0.00,M,00.000,M,,*49
$GPGGA,005729.00,2428.71580269,N,11805.31596410,E,1,05,2.87,+0.00,M,00.000,M,,*4C
$GPGGA,005730.00,2428.72119729,N,11805.33131206,E,1,05,2.87,+0.00,M,00.000,M,,*48
$GPGGA,005731.00,2428.72660666,N,11805.34665384,E,1,05,2.87,+0.00,M,00.000,M,,*40
$GPGGA,005732.00,2428.73196377,N,11805.36201742,E,1,05,2.87,+0.00,M,00.000,M,,*43
$GPGGA,005733.00,2428.73698816,N,11805.37751431,E,1,05,2.87,+0.00,M,00.000,M,,*41
$GPGGA,005734.00,2428.74188763,N,11805.39305931,E,1,05,2.87,+0.00,M,00.000,M,,*4C
$GPGGA,005735.00,2428.74677925,N,11805.40860727,E,1,05,2.87,+0.00,M,00.000,M,,*49
$GPGGA,005736.00,2428.75167052,N,11805.42415536,E,1,05,2.87,+0.00,M,00.000,M,,*4A
$GPGGA,005737.00,2428.75656441,N,11805.43970248,E,1,05,2.87,+0.00,M,00.000,M,,*49
$GPGGA,005738.00,2428.76150093,N,11805.45523347,E,1,05,2.87,+0.00,M,00.000,M,,*4D
$GPGGA,005739.00,2428.76655155,N,11805.47072065,E,1,05,2.87,+0.00,M,00.000,M,,*45
$GPGGA,005740.00,2428.77162052,N,11805.48620068,E,1,05,2.87,+0.00,M,00.000,M,,*4C
$GPGGA,005741.00,2428.77669059,N,11805.50168029,E,1,05,2.87,+0.00,M,00.000,M,,*4D
$GPGGA,005742.00,2428.78176071,N,11805.51715990,E,1,05,2.87,+0.00,M,00.000,M,,*44
$GPGGA,005743.00,2428.78683079,N,11805.53263953,E,1,05,2.87,+0.00,M,00.000,M,,*49
$GPGGA,005744.00,2428.79190072,N,11805.54811924,E,1,05,2.87,+0.00,M,00.000,M,,*49
$GPGGA,005745.00,2428.79696849,N,11805.56359979,E,1,05,2.87,+0.00,M,00.000,M,,*44
$GPGGA,005746.00,2428.80200654,N,11805.57909192,E,1,05,2.87,+0.00,M,00.000,M,,*4B
$GPGGA,005747.00,2428.80700005,N,11805.59460128,E,1,05,2.87,+0.00,M,00.000,M,,*40
$GPGGA,005748.00,2428.81198876,N,11805.61011249,E,1,05,2.87,+0.00,M,00.000,M,,*48
$GPGGA,005749.00,2428.81697714,N,11805.62562385,E,1,05,2.87,+0.00,M,00.000,M,,*49
$GPGGA,005750.00,2428.82196532,N,11805.64113528,E,1,05,2.87,+0.00,M,00.000,M,,*47
$GPGGA,005751.00,2428.82695103,N,11805.65664768,E,1,05,2.87,+0.00,M,00.000,M,,*44
$GPGGA,005752.00,2428.83189688,N,11805.67217527,E,1,05,2.87,+0.00,M,00.000,M,,*43
$GPGGA,005753.00,2428.83647672,N,11805.68783532,E,1,05,2.87,+0.00,M,00.000,M,,*41
$GPGGA,005754.00,2428.84081847,N,11805.70357719,E,1,05,2.87,+0.00,M,00.000,M,,*4A
$GPGGA,005755.00,2428.84514324,N,11805.71932466,E,1,05,2.87,+0.00,M,00.000,M,,*4F
$GPGGA,005756.00,2428.84946661,N,11805.73507259,E,1,05,2.87,+0.00,M,00.000,M,,*41
$GPGGA,005757.00,2428.85378434,N,11805.75082239,E,1,05,2.87,+0.00,M,00.000,M,,*4C
$GPGGA,005758.00,2428.85807350,N,11805.76658151,E,1,05,2.87,+0.00,M,00.000,M,,*4A
$GPGGA,005759.00,2428.86235417,N,11805.78234339,E,1,05,2.87,+0.00,M,00.000,M,,*4B
$GPGGA,005800.00,2428.86663429,N,11805.79810546,E,1,05,2.87,-0.01,M,00.000,M,,*46
$GPGGA,005801.00,2428.87091435,N,11805.81386756,E,1,05,2.87,-0.01,M,00.000,M,,*40
$GPGGA,005802.00,2428.87519439,N,11805.82962968,E,1,05,2.87,-0.01,M,00.000,M,,*4A
$GPGGA,005803.00,2428.87947440,N,11805.84539182,E,1,05,2.87,-0.01,M,00.000,M,,*4A
$GPGGA,005804.00,2428.88375437,N,11805.86115397,E,1,05,2.87,-0.01,M,00.000,M,,*47
$GPGGA,005805.00,2428.88803433,N,11805.87691615,E,1,05,2.87,-0.01,M,00.000,M,,*4D
$GPGGA,005806.00,2428.89231425,N,11805.89267834,E,1,05,2.87,-0.01,M,00.000,M,,*4D
$GPGGA,005807.00,2428.89659415,N,11805.90844054,E,1,05,2.87,-0.02,M,00.000,M,,*4B
$GPGGA,005808.00,2428.90087402,N,11805.92420277,E,1,05,2.87,-0.02,M,00.000,M,,*40
$GPGGA,005809.00,2428.90515386,N,11805.93996501,E,1,05,2.87,-0.02,M,00.000,M,,*43
$GPGGA,005810.00,2428.90943367,N,11805.95572727,E,1,05,2.87,-0.02,M,00.000,M,,*4D
$GPGGA,005811.00,2428.91371346,N,11805.97148955,E,1,05,2.87,-0.02,M,00.000,M,,*41
$GPGGA,005812.00,2428.91799322,N,11805.98725185,E,1,05,2.87,-0.02,M,00.000,M,,*45
$GPGGA,005813.00,2428.92227295,N,11806.00301416,E,1,05,2.87,-0.02,M,00.000,M,,*45
$GPGGA,005814.00,2428.92655266,N,11806.01877650,E,1,05,2.87,-0.02,M,00.000,M,,*44
$GPGGA,005815.00,2428.93083234,N,11806.03453885,E,1,05,2.87,-0.02,M,00.000,M,,*40
$GPGGA,005816.00,2428.93511199,N,11806.05030121,E,1,05,2.87,-0.02,M,00.000,M,,*49
$GPGGA,005817.00,2428.93939161,N,11806.06606360,E,1,05,2.87,-0.02,M,00.000,M,,*4E
$GPGGA,005818.00,2428.94367120,N,11806.08182600,E,1,05,2.87,-0.02,M,00.000,M,,*44
$GPGGA,005819.00,2428.94795077,N,11806.09758842,E,1,05,2.87,-0.02,M,00.000,M,,*47
$GPGGA,005820.00,2428.95223031,N,11806.11335086,E,1,05,2.87,-0.02,M,00.000,M,,*40
$GPGGA,005821.00,2428.95650982,N,11806.12911332,E,1,05,2.87,-0.02,M,00.000,M,,*43
$GPGGA,005822.00,2428.96078931,N,11806.14487579,E,1,05,2.87,-0.02,M,00.000,M,,*4A
$GPGGA,005823.00,2428.96506877,N,11806.16063829,E,1,05,2.87,-0.02,M,00.000,M,,*40
$GPGGA,005824.00,2428.96934820,N,11806.17640080,E,1,05,2.87,-0.02,M,00.000,M,,*45
$GPGGA,005825.00,2428.97362760,N,11806.19216332,E,1,05,2.87,-0.01,M,00.000,M,,*47
$GPGGA,005826.00,2428.97790697,N,11806.20792587,E,1,05,2.87,-0.01,M,00.000,M,,*4F
$GPGGA,005827.00,2428.98218632,N,11806.22368843,E,1,05,2.87,-0.01,M,00.000,M,,*4D
$GPGGA,005828.00,2428.98646564,N,11806.23945101,E,1,05,2.87,-0.01,M,00.000,M,,*46
$GPGGA,005829.00,2428.99074492,N,11806.25521362,E,1,05,2.87,-0.01,M,00.000,M,,*46
$GPGGA,005830.00,2428.99502397,N,11806.27097630,E,1,05,2.87,-0.01,M,00.000,M,,*40
$GPGGA,005831.00,2428.99929961,N,11806.28674010,E,1,05,2.87,+0.00,M,00.000,M,,*40
$GPGGA,005832.00,2429.00351979,N,11806.30252166,E,1,05,2.87,+0.00,M,00.000,M,,*47
$GPGGA,005833.00,2429.00658217,N,11806.31672217,E,1,05,2.87,+0.00,M,00.000,M,,*4B
$GPGGA,005834.00,2429.00505611,N,11806.32739349,E,1,05,2.87,+0.00,M,00.000,M,,*42
$GPGGA,005835.00,2428.99846074,N,11806.34072591,E,1,05,2.87,+0.00,M,00.000,M,,*40
$GPGGA,005836.00,2428.98927102,N,11806.35370569,E,1,05,2.87,+0.00,M,00.000,M,,*43
$GPGGA,005837.00,2428.97793370,N,11806.36443320,E,1,05,2.87,+0.00,M,00.000,M,,*44
$GPGGA,005838.00,2428.96503445,N,11806.37289374,E,1,05,2.87,+0.00,M,00.000,M,,*40
$GPGGA,005839.00,2428.95200176,N,11806.38110972,E,1,05,2.87,+0.00,M,00.000,M,,*43
$GPGGA,005840.00,2428.93896115,N,11806.38931066,E,1,05,2.87,+0.00,M,00.000,M,,*4C
$GPGGA,005841.00,2428.92592004,N,11806.39751066,E,1,05,2.87,+0.00,M,00.000,M,,*4D
$GPGGA,005842.00,2428.91287889,N,11806.40571057,E,1,05,2.87,+0.00,M,00.000,M,,*4F
$GPGGA,005843.00,2428.89983771,N,11806.41391040,E,1,05,2.87,+0.00,M,00.000,M,,*4F
$GPGGA,005844.00,2428.88679614,N,11806.42210948,E,1,05,2.87,+0.00,M,00.000,M,,*4B
$GPGGA,005845.00,2428.87375076,N,11806.43030130,E,1,05,2.87,+0.00,M,00.000,M,,*48
$GPGGA,005846.00,2428.86070255,N,11806.43848772,E,1,05,2.87,+0.00,M,00.000,M,,*48
$GPGGA,005847.00,2428.84765411,N,11806.44667371,E,1,05,2.87,+0.00,M,00.000,M,,*4D
$GPGGA,005848.00,2428.83460566,N,11806.45485964,E,1,05,2.87,+0.00,M,00.000,M,,*43
$GPGGA,005849.00,2428.82155720,N,11806.46304555,E,1,05,2.87,+0.00,M,00.000,M,,*43
$GPGGA,005850.00,2428.80850872,N,11806.47123142,E,1,05,2.87,+0.00,M,00.000,M,,*49
$GPGGA,005851.00,2428.79546021,N,11806.47941720,E,1,05,2.87,+0.00,M,00.000,M,,*44
$GPGGA,005852.00,2428.78241116,N,11806.48760195,E,1,05,2.87,+0.00,M,00.000,M,,*49
$GPGGA,005853.00,2428.76935348,N,11806.49577022,E,1,05,2.87,+0.00,M,00.000,M,,*4F
$GPGGA,005854.00,2428.75626268,N,11806.50387493,E,1,05,2.87,+0.00,M,00.000,M,,*4A
$GPGGA,005855.00,2428.74316465,N,11806.51196569,E,1,05,2.87,-0.01,M,00.000,M,,*47
$GPGGA,005856.00,2428.73006618,N,11806.52005557,E,1,05,2.87,-0.01,M,00.000,M,,*4C
$GPGGA,005857.00,2428.71696767,N,11806.52814537,E,1,05,2.87,-0.01,M,00.000,M,,*47
$GPGGA,005858.00,2428.70386915,N,11806.53623514,E,1,05,2.87,-0.01,M,00.000,M,,*4C
$GPGGA,005859.00,2428.69077062,N,11806.54432488,E,1,05,2.87,-0.01,M,00.000,M,,*40
$GPGGA,005900.00,2428.67767209,N,11806.55241459,E,1,05,2.87,-0.02,M,00.000,M,,*46
$GPGGA,005901.00,2428.66457354,N,11806.56050428,E,1,05,2.87,-0.02,M,00.000,M,,*48
$GPGGA,005902.00,2428.65147499,N,11806.56859394,E,1,05,2.87,-0.02,M,00.000,M,,*4B
$GPGGA,005903.00,2428.63837644,N,11806.57668356,E,1,05,2.87,-0.02,M,00.000,M,,*43
$GPGGA,005904.00,2428.62527787,N,11806.58477317,E,1,05,2.87,-0.02,M,00.000,M,,*41
$GPGGA,005905.00,2428.61217930,N,11806.59286274,E,1,05,2.87,-0.03,M,00.000,M,,*49
$GPGGA,005906.00,2428.59908072,N,11806.60095228,E,1,05,2.87,-0.03,M,00.000,M,,*48
$GPGGA,005907.00,2428.58598213,N,11806.60904180,E,1,05,2.87,-0.03,M,00.000,M,,*48
$GPGGA,005908.00,2428.57288354,N,11806.61713129,E,1,05,2.87,-0.03,M,00.000,M,,*46
$GPGGA,005909.00,2428.55978493,N,11806.62522075,E,1,05,2.87,-0.03,M,00.000,M,,*46
$GPGGA,005910.00,2428.54668632,N,11806.63331019,E,1,05,2.87,-0.03,M,00.000,M,,*47
$GPGGA,005911.00,2428.53358771,N,11806.64139959,E,1,05,2.87,-0.03,M,00.000,M,,*41
$GPGGA,005912.00,2428.52048908,N,11806.64948897,E,1,05,2.87,-0.03,M,00.000,M,,*4C
$GPGGA,005913.00,2428.50739045,N,11806.65757832,E,1,05,2.87,-0.03,M,00.000,M,,*40
$GPGGA,005914.00,2428.49429181,N,11806.66566764,E,1,05,2.87,-0.03,M,00.000,M,,*4B
$GPGGA,005915.00,2428.48119316,N,11806.67375693,E,1,05,2.87,-0.03,M,00.000,M,,*4D
$GPGGA,005916.00,2428.46809450,N,11806.68184620,E,1,05,2.87,-0.03,M,00.000,M,,*46
$GPGGA,005917.00,2428.45499584,N,11806.68993544,E,1,05,2.87,-0.03,M,00.000,M,,*46
$GPGGA,005918.00,2428.44189717,N,11806.69802465,E,1,05,2.87,-0.03,M,00.000,M,,*4E
$GPGGA,005919.00,2428.42879849,N,11806.70611383,E,1,05,2.87,-0.03,M,00.000,M,,*40
$GPGGA,005920.00,2428.41569980,N,11806.71420299,E,1,05,2.87,-0.03,M,00.000,M,,*4A
$GPGGA,005921.00,2428.40260111,N,11806.72229211,E,1,05,2.87,-0.03,M,00.000,M,,*48
$GPGGA,005922.00,2428.38950241,N,11806.73038121,E,1,05,2.87,-0.03,M,00.000,M,,*49
$GPGGA,005923.00,2428.37640370,N,11806.73847028,E,1,05,2.87,-0.03,M,00.000,M,,*42
$GPGGA,005924.00,2428.36330498,N,11806.74655933,E,1,05,2.87,-0.03,M,00.000,M,,*4E
$GPGGA,005925.00,2428.35020626,N,11806.75464834,E,1,05,2.87,-0.03,M,00.000,M,,*4E
$GPGGA,005926.00,2428.33710752,N,11806.76273733,E,1,05,2.87,-0.03,M,00.000,M,,*46
$GPGGA,005927.00,2428.32400878,N,11806.77082629,E,1,05,2.87,-0.03,M,00.000,M,,*44
$GPGGA,005928.00,2428.31091004,N,11806.77891522,E,1,05,2.87,-0.02,M,00.000,M,,*44
$GPGGA,005929.00,2428.29781128,N,11806.78700412,E,1,05,2.87,-0.02,M,00.000,M,,*4F
$GPGGA,005930.00,2428.28471252,N,11806.79509300,E,1,05,2.87,-0.02,M,00.000,M,,*4A
$GPGGA,005931.00,2428.27161375,N,11806.80318185,E,1,05,2.87,-0.02,M,00.000,M,,*4B
$GPGGA,005932.00,2428.25851497,N,11806.81127066,E,1,05,2.87,-0.02,M,00.000,M,,*48
$GPGGA,005933.00,2428.24541619,N,11806.81935946,E,1,05,2.87,-0.02,M,00.000,M,,*40
$GPGGA,005934.00,2428.23231740,N,11806.82744822,E,1,05,2.87,-0.01,M,00.000,M,,*46
$GPGGA,005935.00,2428.21921859,N,11806.83553695,E,1,05,2.87,-0.01,M,00.000,M,,*4F
$GPGGA,005936.00,2428.20611977,N,11806.84362563,E,1,05,2.87,-0.01,M,00.000,M,,*45
$GPGGA,005937.00,2428.19302067,N,11806.85171377,E,1,05,2.87,-0.01,M,00.000,M,,*43
$GPGGA,005938.00,2428.17991729,N,11806.85979360,E,1,05,2.87,+0.00,M,00.000,M,,*4E
$GPGGA,005939.00,2428.16695422,N,11806.86761146,E,1,05,2.87,+0.00,M,00.000,M,,*4F
$GPGGA,005940.00,2428.15778439,N,11806.87187398,E,1,05,2.87,+0.00,M,00.000,M,,*44
$GPGGA,005941.00,2428.15239109,N,11806.86991578,E,1,05,2.87,+0.00,M,00.000,M,,*45
$GPGGA,005942.00,2428.14594846,N,11806.86028637,E,1,05,2.87,+0.00,M,00.000,M,,*46
$GPGGA,005943.00,2428.13845601,N,11806.84615655,E,1,05,2.87,+0.00,M,00.000,M,,*42
$GPGGA,005944.00,2428.13222961,N,11806.83119314,E,1,05,2.87,+0.00,M,00.000,M,,*4B
$GPGGA,005945.00,2428.12632528,N,11806.81607148,E,1,05,2.87,+0.00,M,00.000,M,,*4E
$GPGGA,005946.00,2428.12044098,N,11806.80094050,E,1,05,2.87,+0.00,M,00.000,M,,*41
$GPGGA,005947.00,2428.11456144,N,11806.78580731,E,1,05,2.87,+0.00,M,00.000,M,,*43
$GPGGA,005948.00,2428.10874049,N,11806.77064724,E,1,05,2.87,+0.00,M,00.000,M,,*49
$GPGGA,005949.00,2428.10366559,N,11806.75517896,E,1,05,2.87,+0.00,M,00.000,M,,*41
$GPGGA,005950.00,2428.09945694,N,11806.73939517,E,1,05,2.87,+0.00,M,00.000,M,,*4A
$GPGGA,005951.00,2428.09532785,N,11806.72358615,E,1,05,2.87,+0.00,M,00.000,M,,*4B
$GPGGA,005952.00,2428.09119657,N,11806.70777783,E,1,05,2.87,+0.00,M,00.000,M,,*4E
$GPGGA,005953.00,2428.08695024,N,11806.69200630,E,1,05,2.87,+0.00,M,00.000,M,,*4B
$GPGGA,005954.00,2428.08218159,N,11806.67641413,E,1,05,2.87,+0.00,M,00.000,M,,*4A
$GPGGA,005955.00,2428.07727909,N,11806.66087110,E,1,05,2.87,+0.00,M,00.000,M,,*4B
$GPGGA,005956.00,2428.07237202,N,11806.64532981,E,1,05,2.87,+0.00,M,00.000,M,,*45
$GPGGA,005957.00,2428.06752404,N,11806.62976650,E,1,05,2.87,+0.00,M,00.000,M,,*4A
$GPGGA,005958.00,2428.06338461,N,11806.61396714,E,1,05,2.87,+0.00,M,00.000,M,,*48
$GPGGA,005959.00,2428.05995945,N,11806.59795879,E,1,05,2.87,+0.00,M,00.000,M,,*44
$GPGGA,010000.00,2428.05659540,N,11806.58193490,E,1,05,2.87,+0.00,M,00.000,M,,*49
$GPGGA,010001.00,2428.05323507,N,11806.56591007,E,1,05,2.87,+0.00,M,00.000,M,,*41
$GPGGA,010002.00,2428.04987495,N,11806.54988520,E,1,05,2.87,+0.00,M,00.000,M,,*4B
$GPGGA,010003.00,2428.04651480,N,11806.53386035,E,1,05,2.87,+0.00,M,00.000,M,,*48
$GPGGA,010004.00,2428.04315460,N,11806.51783551,E,1,05,2.87,+0.00,M,00.000,M,,*40
$GPGGA,010005.00,2428.03979387,N,11806.50181082,E,1,05,2.87,+0.00,M,00.000,M,,*46
$GPGGA,010006.00,2428.03642494,N,11806.48578819,E,1,05,2.87,+0.00,M,00.000,M,,*46
$GPGGA,010007.00,2428.03292038,N,11806.46980081,E,1,05,2.87,+0.00,M,00.000,M,,*40
$GPGGA,010008.00,2428.02715424,N,11806.45547252,E,1,05,2.87,+0.00,M,00.000,M,,*45
$GPGGA,010009.00,2428.01426585,N,11806.45342524,E,1,05,2.87,+0.00,M,00.000,M,,*4B
$GPGGA,010010.00,2428.00007838,N,11806.45785868,E,1,05,2.87,+0.00,M,00.000,M,,*44
$GPGGA,010011.00,2427.98621249,N,11806.46424144,E,1,05,2.87,+0.00,M,00.000,M,,*49
$GPGGA,010012.00,2427.97241756,N,11806.47080713,E,1,05,2.87,+0.00,M,00.000,M,,*43
$GPGGA,010013.00,2427.95862685,N,11806.47738340,E,1,05,2.87,+0.00,M,00.000,M,,*42
$GPGGA,010014.00,2427.94483295,N,11806.48395166,E,1,05,2.87,+0.00,M,00.000,M,,*48
$GPGGA,010015.00,2427.93098374,N,11806.49037829,E,1,05,2.87,+0.00,M,00.000,M,,*46
$GPGGA,010016.00,2427.91692749,N,11806.49624418,E,1,05,2.87,+0.00,M,00.000,M,,*4B
$GPGGA,010017.00,2427.90282750,N,11806.50198440,E,1,05,2.87,+0.00,M,00.000,M,,*43
$GPGGA,010018.00,2427.88872487,N,11806.50771689,E,1,05,2.87,+0.00,M,00.000,M,,*4F
$GPGGA,010019.00,2427.87462208,N,11806.51344887,E,1,05,2.87,+0.00,M,00.000,M,,*4E
$GPGGA,010020.00,2427.86051927,N,11806.51918081,E,1,05,2.87,+0.00,M,00.000,M,,*4A
$GPGGA,010021.00,2427.84641646,N,11806.52491272,E,1,05,2.87,+0.00,M,00.000,M,,*47
$GPGGA,010022.00,2427.83231364,N,11806.53064462,E,1,05,2.87,+0.00,M,00.000,M,,*4D
$GPGGA,010023.00,2427.81821082,N,11806.53637649,E,1,05,2.87,+0.00,M,00.000,M,,*45
$GPGGA,010024.00,2427.80410799,N,11806.54210834,E,1,05,2.87,+0.00,M,00.000,M,,*42
$GPGGA,010025.00,2427.79000516,N,11806.54784016,E,1,05,2.87,+0.00,M,00.000,M,,*45
$GPGGA,010026.00,2427.77590233,N,11806.55357198,E,1,05,2.87,+0.00,M,00.000,M,,*48
$GPGGA,010027.00,2427.76179954,N,11806.55930391,E,1,05,2.87,+0.00,M,00.000,M,,*41
$GPGGA,010028.00,2427.74769750,N,11806.56503801,E,1,05,2.87,+0.00,M,00.000,M,,*4C
$GPGGA,010029.00,2427.73360537,N,11806.57080110,E,1,05,2.87,+0.00,M,00.000,M,,*42
$GPGGA,010030.00,2427.71952622,N,11806.57660194,E,1,05,2.87,+0.00,M,00.000,M,,*40
$GPGGA,010031.00,2427.70544911,N,11806.58240869,E,1,05,2.87,+0.00,M,00.000,M,,*46
$GPGGA,010032.00,2427.69138475,N,11806.58825209,E,1,05,2.87,+0.00,M,00.000,M,,*48
$GPGGA,010033.00,2427.67754885,N,11806.59469211,E,1,05,2.87,+0.00,M,00.000,M,,*44
$GPGGA,010034.00,2427.66526754,N,11806.60415275,E,1,05,2.87,+0.00,M,00.000,M,,*45
$GPGGA,010035.00,2427.65354052,N,11806.61445301,E,1,05,2.87,+0.00,M,00.000,M,,*43
$GPGGA,010036.00,2427.64185445,N,11806.62480878,E,1,05,2.87,+0.00,M,00.000,M,,*42
$GPGGA,010037.00,2427.63025721,N,11806.63528234,E,1,05,2.87,+0.00,M,00.000,M,,*4E
$GPGGA,010038.00,2427.61949025,N,11806.64675142,E,1,05,2.87,+0.00,M,00.000,M,,*4D
$GPGGA,010039.00,2427.60927508,N,11806.65882156,E,1,05,2.87,+0.00,M,00.000,M,,*4D
$GPGGA,010040.00,2427.59911863,N,11806.67095076,E,1,05,2.87,+0.00,M,00.000,M,,*43
$GPGGA,010041.00,2427.58916574,N,11806.68327883,E,1,05,2.87,+0.00,M,00.000,M,,*48
$GPGGA,010042.00,2427.57938027,N,11806.69576671,E,1,05,2.87,+0.00,M,00.000,M,,*4B
$GPGGA,010043.00,2427.56960795,N,11806.70826686,E,1,05,2.87,+0.00,M,00.000,M,,*40
$GPGGA,010044.00,2427.55983658,N,11806.72076788,E,1,05,2.87,+0.00,M,00.000,M,,*49
$GPGGA,010045.00,2427.55006796,N,11806.73327145,E,1,05,2.87,+0.00,M,00.000,M,,*4E
$GPGGA,010046.00,2427.54034370,N,11806.74581610,E,1,05,2.87,+0.00,M,00.000,M,,*4B
$GPGGA,010047.00,2427.53123604,N,11806.75889019,E,1,05,2.87,+0.00,M,00.000,M,,*47
$GPGGA,010048.00,2427.52303220,N,11806.77267002,E,1,05,2.87,+0.00,M,00.000,M,,*49
$GPGGA,010049.00,2427.51582198,N,11806.78706830,E,1,05,2.87,+0.00,M,00.000,M,,*40
$GPGGA,010050.00,2427.51189413,N,11806.80292672,E,1,05,2.87,+0.00,M,00.000,M,,*46
$GPGGA,010051.00,2427.50814229,N,11806.81884514,E,1,05,2.87,+0.00,M,00.000,M,,*4B
$GPGGA,010052.00,2427.50414842,N,11806.83469417,E,1,05,2.87,+0.00,M,00.000,M,,*4C
$GPGGA,010053.00,2427.50005458,N,11806.85051254,E,1,05,2.87,+0.00,M,00.000,M,,*46
$GPGGA,010054.00,2427.49477102,N,11806.86587565,E,1,05,2.87,+0.00,M,00.000,M,,*4A
$GPGGA,010055.00,2427.48764151,N,11806.88035058,E,1,05,2.87,+0.00,M,00.000,M,,*44
$GPGGA,010056.00,2427.48031678,N,11806.89471005,E,1,05,2.87,+0.00,M,00.000,M,,*41
$GPGGA,010057.00,2427.47298019,N,11806.90906228,E,1,05,2.87,+0.00,M,00.000,M,,*47
$GPGGA,010058.00,2427.46564316,N,11806.92341346,E,1,05,2.87,+0.00,M,00.000,M,,*43
$GPGGA,010059.00,2427.45933528,N,11806.93575147,E,1,05,2.87,+0.00,M,00.000,M,,*47
$GPGGA,010100.00,2427.45663758,N,11806.94102806,E,1,05,2.87,+0.00,M,00.000,M,,*4A
$GPGGA,010101.00,2427.45663758,N,11806.94102806,E,1,05,2.87,+0.00,M,00.000,M,,*4B
